<?xml version="1.0" encoding="UTF-8" ?>
<root>
  <states>
    <abbr>AL</abbr>
    <name>Alabama</name>
    <capital>Montgomery</capital>
    <lat>32.361538</lat>
    <long>-86.279118</long>
  </states>
  <states>
    <abbr>AK</abbr>
    <name>Alaska</name>
    <capital>Juneau</capital>
    <lat>58.301935</lat>
    <long>-134.419740</long>
  </states>
  <states>
    <abbr>AZ</abbr>
    <name>Arizona</name>
    <capital>Phoenix</capital>
    <lat>33.448457</lat>
    <long>-112.073844</long>
  </states>
  <states>
    <abbr>AR</abbr>
    <name>Arkansas</name>
    <capital>Little Rock</capital>
    <lat>34.736009</lat>
    <long>-92.331122</long>
  </states>
  <states>
    <abbr>CA</abbr>
    <name>California</name>
    <capital>Sacramento</capital>
    <lat>38.555605</lat>
    <long>-121.468926</long>
  </states>
  <states>
    <abbr>CO</abbr>
    <name>Colorado</name>
    <capital>Denver</capital>
    <lat>39.7391667</lat>
    <long>-104.984167</long>
  </states>
  <states>
    <abbr>CT</abbr>
    <name>Connecticut</name>
    <capital>Hartford</capital>
    <lat>41.767</lat>
    <long>-72.677</long>
  </states>
  <states>
    <abbr>DE</abbr>
    <name>Delaware</name>
    <capital>Dover</capital>
    <lat>39.161921</lat>
    <long>-75.526755</long>
  </states>
  <states>
    <abbr>FL</abbr>
    <name>Florida</name>
    <capital>Tallahassee</capital>
    <lat>30.4518</lat>
    <long>-84.27277</long>
  </states>
  <states>
    <abbr>GA</abbr>
    <name>Georgia</name>
    <capital>Atlanta</capital>
    <lat>33.76</lat>
    <long>-84.39</long>
  </states>
  <states>
    <abbr>HI</abbr>
    <name>Hawaii</name>
    <capital>Honolulu</capital>
    <lat>21.30895</lat>
    <long>-157.826182</long>
  </states>
  <states>
    <abbr>ID</abbr>
    <name>Idaho</name>
    <capital>Boise</capital>
    <lat>43.613739</lat>
    <long>-116.237651</long>
  </states>
  <states>
    <abbr>IL</abbr>
    <name>Illinois</name>
    <capital>Springfield</capital>
    <lat>39.783250</lat>
    <long>-89.650373</long>
  </states>
  <states>
    <abbr>IN</abbr>
    <name>Indiana</name>
    <capital>Indianapolis</capital>
    <lat>39.790942</lat>
    <long>-86.147685</long>
  </states>
  <states>
    <abbr>IA</abbr>
    <name>Iowa</name>
    <capital>Des Moines</capital>
    <lat>41.590939</lat>
    <long>-93.620866</long>
  </states>
  <states>
    <abbr>KS</abbr>
    <name>Kansas</name>
    <capital>Topeka</capital>
    <lat>39.04</lat>
    <long>-95.69</long>
  </states>
  <states>
    <abbr>KY</abbr>
    <name>Kentucky</name>
    <capital>Frankfort</capital>
    <lat>38.197274</lat>
    <long>-84.86311</long>
  </states>
  <states>
    <abbr>LA</abbr>
    <name>Louisiana</name>
    <capital>Baton Rouge</capital>
    <lat>30.45809</lat>
    <long>-91.140229</long>
  </states>
  <states>
    <abbr>ME</abbr>
    <name>Maine</name>
    <capital>Augusta</capital>
    <lat>44.323535</lat>
    <long>-69.765261</long>
  </states>
  <states>
    <abbr>MD</abbr>
    <name>Maryland</name>
    <capital>Annapolis</capital>
    <lat>38.972945</lat>
    <long>-76.501157</long>
  </states>
  <states>
    <abbr>MA</abbr>
    <name>Massachusetts</name>
    <capital>Boston</capital>
    <lat>42.2352</lat>
    <long>-71.0275</long>
  </states>
  <states>
    <abbr>MI</abbr>
    <name>Michigan</name>
    <capital>Lansing</capital>
    <lat>42.7335</lat>
    <long>-84.5467</long>
  </states>
  <states>
    <abbr>MN</abbr>
    <name>Minnesota</name>
    <capital>Saint Paul</capital>
    <lat>44.95</lat>
    <long>-93.094</long>
  </states>
  <states>
    <abbr>MS</abbr>
    <name>Mississippi</name>
    <capital>Jackson</capital>
    <lat>32.320</lat>
    <long>-90.207</long>
  </states>
  <states>
    <abbr>MO</abbr>
    <name>Missouri</name>
    <capital>Jefferson City</capital>
    <lat>38.572954</lat>
    <long>-92.189283</long>
  </states>
  <states>
    <abbr>MT</abbr>
    <name>Montana</name>
    <capital>Helana</capital>
    <lat>46.595805</lat>
    <long>-112.027031</long>
  </states>
  <states>
    <abbr>NE</abbr>
    <name>Nebraska</name>
    <capital>Lincoln</capital>
    <lat>40.809868</lat>
    <long>-96.675345</long>
  </states>
  <states>
    <abbr>NV</abbr>
    <name>Nevada</name>
    <capital>Carson City</capital>
    <lat>39.160949</lat>
    <long>-119.753877</long>
  </states>
  <states>
    <abbr>NH</abbr>
    <name>New Hampshire</name>
    <capital>Concord</capital>
    <lat>43.220093</lat>
    <long>-71.549127</long>
  </states>
  <states>
    <abbr>NJ</abbr>
    <name>New Jersey</name>
    <capital>Trenton</capital>
    <lat>40.221741</lat>
    <long>-74.756138</long>
  </states>
  <states>
    <abbr>NM</abbr>
    <name>New Mexico</name>
    <capital>Santa Fe</capital>
    <lat>35.667231</lat>
    <long>-105.964575</long>
  </states>
  <states>
    <abbr>NY</abbr>
    <name>New York</name>
    <capital>Albany</capital>
    <lat>42.659829</lat>
    <long>-73.781339</long>
  </states>
  <states>
    <abbr>NC</abbr>
    <name>North Carolina</name>
    <capital>Raleigh</capital>
    <lat>35.771</lat>
    <long>-78.638</long>
  </states>
  <states>
    <abbr>ND</abbr>
    <name>North Dakota</name>
    <capital>Bismarck</capital>
    <lat>48.813343</lat>
    <long>-100.779004</long>
  </states>
  <states>
    <abbr>OH</abbr>
    <name>Ohio</name>
    <capital>Columbus</capital>
    <lat>39.962245</lat>
    <long>-83.000647</long>
  </states>
  <states>
    <abbr>OK</abbr>
    <name>Oklahoma</name>
    <capital>Oklahoma City</capital>
    <lat>35.482309</lat>
    <long>-97.534994</long>
  </states>
  <states>
    <abbr>OR</abbr>
    <name>Oregon</name>
    <capital>Salem</capital>
    <lat>44.931109</lat>
    <long>-123.029159</long>
  </states>
  <states>
    <abbr>PA</abbr>
    <name>Pennsylvania</name>
    <capital>Harrisburg</capital>
    <lat>40.269789</lat>
    <long>-76.875613</long>
  </states>
  <states>
    <abbr>RI</abbr>
    <name>Rhode Island</name>
    <capital>Providence</capital>
    <lat>41.82355</lat>
    <long>-71.422132</long>
  </states>
  <states>
    <abbr>SC</abbr>
    <name>South Carolina</name>
    <capital>Columbia</capital>
    <lat>34.000</lat>
    <long>-81.035</long>
  </states>
  <states>
    <abbr>SD</abbr>
    <name>South Dakota</name>
    <capital>Pierre</capital>
    <lat>44.367966</lat>
    <long>-100.336378</long>
  </states>
  <states>
    <abbr>TN</abbr>
    <name>Tennessee</name>
    <capital>Nashville</capital>
    <lat>36.165</lat>
    <long>-86.784</long>
  </states>
  <states>
    <abbr>TX</abbr>
    <name>Texas</name>
    <capital>Austin</capital>
    <lat>30.266667</lat>
    <long>-97.75</long>
  </states>
  <states>
    <abbr>UT</abbr>
    <name>Utah</name>
    <capital>Salt Lake City</capital>
    <lat>40.7547</lat>
    <long>-111.892622</long>
  </states>
  <states>
    <abbr>VT</abbr>
    <name>Vermont</name>
    <capital>Montpelier</capital>
    <lat>44.26639</lat>
    <long>-72.57194</long>
  </states>
  <states>
    <abbr>VA</abbr>
    <name>Virginia</name>
    <capital>Richmond</capital>
    <lat>37.54</lat>
    <long>-77.46</long>
  </states>
  <states>
    <abbr>WA</abbr>
    <name>Washington</name>
    <capital>Olympia</capital>
    <lat>47.042418</lat>
    <long>-122.893077</long>
  </states>
  <states>
    <abbr>WV</abbr>
    <name>West Virginia</name>
    <capital>Charleston</capital>
    <lat>38.349497</lat>
    <long>-81.633294</long>
  </states>
  <states>
    <abbr>WI</abbr>
    <name>Wisconsin</name>
    <capital>Madison</capital>
    <lat>43.074722</lat>
    <long>-89.384444</long>
  </states>
  <states>
    <abbr>WY</abbr>
    <name>Wyoming</name>
    <capital>Cheyenne</capital>
    <lat>41.145548</lat>
    <long>-104.802042</long>
  </states>
</root>